[{"lng": 121.53438, "lat": 25.01491, "station_name": "YouBike2.0_\u6377\u904b\u516c\u9928\u7ad9(2\u865f\u51fa\u53e3)", "rentable": "0", "space": "69"}, {"lng": 121.54062, "lat": 25.01137, "station_name": "YouBike2.0_\u516c\u9928\u516c\u5712", "rentable": "15", "space": "0"}, {"lng": 121.54382, "lat": 25.01426, "station_name": "YouBike2.0_\u81fa\u5927\u91ab\u5b78\u9662\u9644\u8a2d\u764c\u91ab\u4e2d\u5fc3", "rentable": "5", "space": "13"}, {"lng": 121.54503, "lat": 25.01234, "station_name": "YouBike2.0_\u81fa\u5927\u74b0\u7814\u5927\u6a13", "rentable": "6", "space": "5"}, {"lng": 121.54656, "lat": 25.0136, "station_name": "YouBike2.0_\u81fa\u5927\u6c38\u9f61\u751f\u91ab\u5de5\u7a0b\u9928", "rentable": "17", "space": "17"}, {"lng": 121.54698, "lat": 25.01537, "station_name": "YouBike2.0_\u81fa\u5927\u7537\u4e03\u820d\u524d", "rentable": "4", "space": "16"}, {"lng": 121.54535, "lat": 25.01637, "station_name": "YouBike2.0_\u81fa\u5927\u7537\u4e00\u820d\u524d", "rentable": "41", "space": "20"}, {"lng": 121.5452, "lat": 25.01664, "station_name": "YouBike2.0_\u81fa\u5927\u7537\u516d\u820d\u524d", "rentable": "25", "space": "21"}, {"lng": 121.54291, "lat": 25.01576, "station_name": "YouBike2.0_\u81fa\u5927\u52d5\u7269\u91ab\u9662\u524d", "rentable": "14", "space": "4"}, {"lng": 121.5476, "lat": 25.01787, "station_name": "YouBike2.0_\u81fa\u5927\u571f\u6728\u7814\u7a76\u5927\u6a13\u524d", "rentable": "14", "space": "10"}, {"lng": 121.54497, "lat": 25.02032, "station_name": "YouBike2.0_\u81fa\u5927\u842c\u624d\u9928\u524d", "rentable": "13", "space": "6"}, {"lng": 121.54432, "lat": 25.02076, "station_name": "YouBike2.0_\u81fa\u5927\u570b\u9752\u5927\u6a13\u5bbf\u820d\u524d", "rentable": "8", "space": "12"}, {"lng": 121.54284, "lat": 25.02101, "station_name": "YouBike2.0_\u81fa\u5927\u793e\u79d1\u9662\u5716\u66f8\u9928\u524d", "rentable": "12", "space": "15"}, {"lng": 121.54081, "lat": 25.02104, "station_name": "YouBike2.0_\u81fa\u5927\u6cd5\u4eba\u8a9e\u8a00\u8a13\u7df4\u4e2d\u5fc3\u524d", "rentable": "25", "space": "2"}, {"lng": 121.53626, "lat": 25.0222, "station_name": "YouBike2.0_\u81fa\u5927\u7d9c\u5408\u9ad4\u80b2\u9928\u505c\u8eca\u5834\u524d", "rentable": "7", "space": "18"}, {"lng": 121.53374, "lat": 25.01551, "station_name": "YouBike2.0_\u6377\u904b\u516c\u9928\u7ad9(3\u865f\u51fa\u53e3)", "rentable": "1", "space": "89"}, {"lng": 121.54153, "lat": 25.02101, "station_name": "YouBike2.0_\u81fa\u5927\u8cc7\u8a0a\u5927\u6a13", "rentable": "27", "space": "13"}, {"lng": 121.53731, "lat": 25.00792, "station_name": "YouBike2.0_\u5e2b\u7bc4\u5927\u5b78\u516c\u9928\u6821\u5340", "rentable": "3", "space": "11"}, {"lng": 121.53719, "lat": 25.00753, "station_name": "YouBike2.0_\u5e2b\u7bc4\u5927\u5b78\u516c\u9928\u6821\u5340_1", "rentable": "9", "space": "12"}, {"lng": 121.53419, "lat": 25.00825, "station_name": "YouBike2.0_\u5e2b\u5927\u516c\u9928\u6821\u5340\u5b78\u4e8c\u820d", "rentable": "17", "space": "23"}, {"lng": 121.534374, "lat": 25.014529, "station_name": "YouBike2.0_\u6377\u904b\u516c\u9928\u7ad9(1\u865f\u51fa\u53e3)", "rentable": "0", "space": "12"}, {"lng": 121.533828, "lat": 25.015069, "station_name": "YouBike2.0_\u6377\u904b\u516c\u9928\u7ad9(4\u865f\u51fa\u53e3)", "rentable": "1", "space": "11"}, {"lng": 121.51643, "lat": 25.04297, "station_name": "YouBike2.0_\u6377\u904b\u81fa\u5927\u91ab\u9662\u7ad9(4\u865f\u51fa\u53e3)", "rentable": "1", "space": "41"}, {"lng": 121.51586, "lat": 25.04074, "station_name": "YouBike2.0_\u6377\u904b\u81fa\u5927\u91ab\u9662\u7ad9(1\u865f\u51fa\u53e3)", "rentable": "0", "space": "19"}, {"lng": 121.5188, "lat": 25.04461, "station_name": "YouBike2.0_\u81fa\u5927\u91ab\u9662\u5152\u7ae5\u91ab\u9662", "rentable": "2", "space": "20"}, {"lng": 121.53044, "lat": 25.01493, "station_name": "YouBike2.0_\u81fa\u5927\u6c34\u6e90\u820d\u5340A\u68df", "rentable": "10", "space": "26"}, {"lng": 121.52917, "lat": 25.01466, "station_name": "YouBike2.0_\u81fa\u5927\u5353\u8d8a\u7814\u7a76\u5927\u6a13", "rentable": "1", "space": "30"}, {"lng": 121.52997, "lat": 25.01411, "station_name": "YouBike2.0_\u81fa\u5927\u6c34\u6e90\u4fee\u9f4a\u6703\u9928", "rentable": "3", "space": "14"}, {"lng": 121.52895, "lat": 25.01391, "station_name": "YouBike2.0_\u81fa\u5927\u6a94\u6848\u5c55\u793a\u9928", "rentable": "6", "space": "3"}, {"lng": 121.53009, "lat": 25.01525, "station_name": "YouBike2.0_\u81fa\u5927\u6c34\u6e90\u820d\u5340B\u68df", "rentable": "1", "space": "29"}, {"lng": 121.54531, "lat": 25.01729, "station_name": "YouBike2.0_\u81fa\u5927\u7537\u516b\u820d\u6771\u5074", "rentable": "14", "space": "28"}, {"lng": 121.53759, "lat": 25.01408, "station_name": "YouBike2.0_\u81fa\u5927\u79ae\u8ce2\u6a13\u6771\u5357\u5074", "rentable": "6", "space": "17"}, {"lng": 121.53404, "lat": 25.01839, "station_name": "YouBike2.0_\u81fa\u5927\u8fb2\u696d\u9673\u5217\u9928\u5317\u5074", "rentable": "17", "space": "25"}, {"lng": 121.53673, "lat": 25.01355, "station_name": "YouBike2.0_\u81fa\u5927\u7ba1\u7406\u5b78\u9662\u4e8c\u9928\u5317\u5074", "rentable": "18", "space": "22"}, {"lng": 121.53844, "lat": 25.01761, "station_name": "YouBike2.0_\u81fa\u5927\u571f\u6728\u7cfb\u9928", "rentable": "10", "space": "0"}, {"lng": 121.53436, "lat": 25.01547, "station_name": "YouBike2.0_\u81fa\u5927\u5927\u4e00\u5973\u820d\u5317\u5074", "rentable": "0", "space": "52"}, {"lng": 121.53902, "lat": 25.01937, "station_name": "YouBike2.0_\u81fa\u5927\u5973\u4e5d\u820d\u897f\u5357\u5074", "rentable": "20", "space": "41"}, {"lng": 121.5376, "lat": 25.01846, "station_name": "YouBike2.0_\u81fa\u5927\u5c0f\u798f\u6a13\u6771\u5074", "rentable": "10", "space": "13"}, {"lng": 121.54251, "lat": 25.01616, "station_name": "YouBike2.0_\u81fa\u5927\u7acb\u9ad4\u6a5f\u8eca\u505c\u8eca\u5834", "rentable": "4", "space": "23"}, {"lng": 121.54059, "lat": 25.01857, "station_name": "YouBike2.0_\u81fa\u5927\u5de5\u7d9c\u9928\u5357\u5074", "rentable": "8", "space": "13"}, {"lng": 121.53783, "lat": 25.02108, "station_name": "YouBike2.0_\u81fa\u5927\u5929\u6587\u6578\u5b78\u9928\u5357\u5074", "rentable": "6", "space": "4"}, {"lng": 121.5404, "lat": 25.01941, "station_name": "YouBike2.0_\u81fa\u5927\u5fc3\u7406\u7cfb\u9928\u5357\u5074", "rentable": "12", "space": "14"}, {"lng": 121.53585, "lat": 25.01793, "station_name": "YouBike2.0_\u81fa\u5927\u6a02\u5b78\u9928\u6771\u5074", "rentable": "23", "space": "4"}, {"lng": 121.53535, "lat": 25.01627, "station_name": "YouBike2.0_\u81fa\u5927\u8fb2\u5316\u65b0\u9928\u897f\u5074", "rentable": "6", "space": "4"}, {"lng": 121.53718, "lat": 25.01666, "station_name": "YouBike2.0_\u81fa\u5927\u4e94\u865f\u9928\u897f\u5074", "rentable": "2", "space": "18"}, {"lng": 121.53583, "lat": 25.0198, "station_name": "YouBike2.0_\u81fa\u5927\u820a\u9ad4\u80b2\u9928\u897f\u5074", "rentable": "26", "space": "7"}, {"lng": 121.53791, "lat": 25.01595, "station_name": "YouBike2.0_\u81fa\u5927\u5171\u540c\u6559\u5ba4\u5317\u5074", "rentable": "9", "space": "11"}, {"lng": 121.53786, "lat": 25.01566, "station_name": "YouBike2.0_\u81fa\u5927\u5171\u540c\u6559\u5ba4\u6771\u5357\u5074", "rentable": "1", "space": "11"}, {"lng": 121.53786, "lat": 25.01511, "station_name": "YouBike2.0_\u81fa\u5927\u9e7f\u9cf4\u5802\u6771\u5074", "rentable": "2", "space": "25"}, {"lng": 121.53798, "lat": 25.01345, "station_name": "YouBike2.0_\u81fa\u5927\u516c\u9928\u505c\u8eca\u5834\u897f\u5317\u5074", "rentable": "2", "space": "10"}, {"lng": 121.53635, "lat": 25.01603, "station_name": "YouBike2.0_\u81fa\u5927\u7b2c\u4e8c\u884c\u653f\u5927\u6a13\u5357\u5074", "rentable": "0", "space": "27"}, {"lng": 121.54398, "lat": 25.01754, "station_name": "YouBike2.0_\u81fa\u5927\u660e\u9054\u9928\u6a5f\u8eca\u505c\u8eca\u5834", "rentable": "3", "space": "25"}, {"lng": 121.53574, "lat": 25.01699, "station_name": "YouBike2.0_\u81fa\u5927\u4e8c\u865f\u9928", "rentable": "8", "space": "2"}, {"lng": 121.53633, "lat": 25.02157, "station_name": "YouBike2.0_\u81fa\u5927\u51dd\u614b\u9928\u5357\u5074", "rentable": "17", "space": "2"}, {"lng": 121.54145, "lat": 25.02053, "station_name": "YouBike2.0_\u81fa\u5927\u793e\u79d1\u9662\u897f\u5074", "rentable": "20", "space": "4"}, {"lng": 121.54175, "lat": 25.01987, "station_name": "YouBike2.0_\u81fa\u5927\u793e\u6703\u7cfb\u9928\u5357\u5074", "rentable": "23", "space": "12"}, {"lng": 121.53906, "lat": 25.02074, "station_name": "YouBike2.0_\u81fa\u5927\u601d\u4eae\u9928\u6771\u5357\u5074", "rentable": "10", "space": "0"}, {"lng": 121.53583, "lat": 25.01561, "station_name": "YouBike2.0_\u81fa\u5927\u6930\u6797\u5c0f\u8216", "rentable": "0", "space": "48"}, {"lng": 121.53992, "lat": 25.02036, "station_name": "YouBike2.0_\u81fa\u5927\u8a08\u8cc7\u4e2d\u5fc3\u5357\u5074", "rentable": "9", "space": "20"}, {"lng": 121.53868, "lat": 25.01881, "station_name": "YouBike2.0_\u81fa\u5927\u539f\u5206\u6240\u5317\u5074", "rentable": "4", "space": "8"}, {"lng": 121.53825, "lat": 25.01548, "station_name": "YouBike2.0_\u81fa\u5927\u751f\u547d\u79d1\u5b78\u9928\u897f\u5317\u5074", "rentable": "18", "space": "12"}, {"lng": 121.53995, "lat": 25.01761, "station_name": "YouBike2.0_\u81fa\u5927\u7b2c\u4e00\u6d3b\u52d5\u4e2d\u5fc3\u897f\u5357\u5074", "rentable": "9", "space": "22"}, {"lng": 121.54195, "lat": 25.01922, "station_name": "YouBike2.0_\u81fa\u5927\u535a\u7406\u9928\u897f\u5074", "rentable": "1", "space": "10"}, {"lng": 121.536, "lat": 25.0189, "station_name": "YouBike2.0_\u81fa\u5927\u535a\u96c5\u9928\u897f\u5074", "rentable": "22", "space": "34"}, {"lng": 121.53888, "lat": 25.01704, "station_name": "YouBike2.0_\u81fa\u5927\u68ee\u6797\u9928\u5317\u5074", "rentable": "9", "space": "1"}, {"lng": 121.53455, "lat": 25.01698, "station_name": "YouBike2.0_\u81fa\u5927\u4e00\u865f\u9928", "rentable": "0", "space": "19"}, {"lng": 121.53686, "lat": 25.01539, "station_name": "YouBike2.0_\u81fa\u5927\u5c0f\u5c0f\u798f\u897f\u5357\u5074", "rentable": "1", "space": "9"}, {"lng": 121.53909, "lat": 25.01337, "station_name": "YouBike2.0_\u81fa\u5927\u6559\u7814\u9928\u5317\u5074", "rentable": "3", "space": "8"}, {"lng": 121.53781, "lat": 25.01703, "station_name": "YouBike2.0_\u81fa\u5927\u56db\u865f\u9928\u6771\u5317\u5074", "rentable": "4", "space": "6"}, {"lng": 121.53846, "lat": 25.0196, "station_name": "YouBike2.0_\u81fa\u5927\u65b0\u751f\u6559\u5ba4\u5357\u5074", "rentable": "10", "space": "3"}, {"lng": 121.54305, "lat": 25.019, "station_name": "YouBike2.0_\u81fa\u5927\u912d\u6c5f\u6a13\u5317\u5074", "rentable": "10", "space": "0"}, {"lng": 121.54247, "lat": 25.01857, "station_name": "YouBike2.0_\u81fa\u5927\u96fb\u6a5f\u4e8c\u9928\u6771\u5357\u5074", "rentable": "14", "space": "0"}, {"lng": 121.53928, "lat": 25.01804, "station_name": "YouBike2.0_\u81fa\u5927\u5716\u8cc7\u7cfb\u9928\u5317\u5074", "rentable": "12", "space": "8"}, {"lng": 121.54031, "lat": 25.0169, "station_name": "YouBike2.0_\u81fa\u5927\u7e3d\u5716\u66f8\u9928\u897f\u5357\u5074", "rentable": "19", "space": "10"}, {"lng": 121.54347, "lat": 25.01995, "station_name": "YouBike2.0_\u81fa\u5927\u9ed1\u68ee\u6797\u897f\u5074", "rentable": "13", "space": "3"}, {"lng": 121.54242, "lat": 25.01791, "station_name": "YouBike2.0_\u81fa\u5927\u7378\u91ab\u9928\u5357\u5074", "rentable": "24", "space": "0"}, {"lng": 121.53591, "lat": 25.02112, "station_name": "YouBike2.0_\u81fa\u5927\u65b0\u9ad4\u80b2\u9928\u6771\u5357\u5074", "rentable": "17", "space": "18"}, {"lng": 121.54469, "lat": 25.01816, "station_name": "YouBike2.0_\u81fa\u5927\u660e\u9054\u9928\u5317\u5074(\u54e1\u5de5\u5bbf\u820d)", "rentable": "7", "space": "11"}]